{
  "type": "FeatureCollection",
  "metadata": {
    "source": "STAR/BRON via Rijkswaterstaat WFS (geo.rijkswaterstaat.nl)",
    "lastUpdated": "2026-03-22",
    "featureCount": 1986,
    "layers": [
      "ongevallen_2022_2024"
    ],
    "note": "Historical dates are year-level (YYYY-01-01). New accidents detected via daily diff get exact date."
  },
  "features": [
    {
      "type": "Feature",
      "geometry": {
        "type": "Point",
        "coordinates": [
          4.73479583,
          52.63994836
        ]
      },
      "properties": {
        "date": "2024-01-01",
        "severity": "letsel",
        "year": 2024,
        "description": "Flank — Bromfiets vs. Personenauto",
        "streetName": "Jan van Scorelkade",
        "speedLimit": 30,
        "parties": 2
      }
    },
    {
      "type": "Feature",
      "geometry": {
        "type": "Point",
        "coordinates": [
          4.74566015,
          52.64241313
        ]
      },
      "properties": {
        "date": "2024-01-01",
        "severity": "letsel",
        "year": 2024,
        "description": "Onbekend — Motor",
        "streetName": "Noorderkade",
        "speedLimit": 50,
        "parties": 1
      }
    },
    {
      "type": "Feature",
      "geometry": {
        "type": "Point",
        "coordinates": [
          4.74332087,
          52.64719275
        ]
      },
      "properties": {
        "date": "2024-01-01",
        "severity": "letsel",
        "year": 2024,
        "description": "Onbekend — Fiets",
        "streetName": "Helderseweg",
        "speedLimit": 50,
        "parties": 1
      }
    },
    {
      "type": "Feature",
      "geometry": {
        "type": "Point",
        "coordinates": [
          4.7410204,
          52.6143506
        ]
      },
      "properties": {
        "date": "2024-01-01",
        "severity": "materieel",
        "year": 2024,
        "description": "Flank — Personenauto vs. Personenauto",
        "streetName": "Smaragdweg",
        "speedLimit": 70,
        "parties": 2
      }
    },
    {
      "type": "Feature",
      "geometry": {
        "type": "Point",
        "coordinates": [
          4.74712786,
          52.63542324
        ]
      },
      "properties": {
        "date": "2024-01-01",
        "severity": "materieel",
        "year": 2024,
        "description": "Onbekend",
        "streetName": "Mallegatsplein",
        "speedLimit": null,
        "parties": 1
      }
    },
    {
      "type": "Feature",
      "geometry": {
        "type": "Point",
        "coordinates": [
          4.84479195,
          52.55202142
        ]
      },
      "properties": {
        "date": "2024-01-01",
        "severity": "materieel",
        "year": 2024,
        "description": "Kop/staart — Bestelauto vs. Personenauto",
        "streetName": "Julianalaan",
        "speedLimit": 50,
        "parties": 4
      }
    },
    {
      "type": "Feature",
      "geometry": {
        "type": "Point",
        "coordinates": [
          4.75422611,
          52.63303622
        ]
      },
      "properties": {
        "date": "2024-01-01",
        "severity": "letsel",
        "year": 2024,
        "description": "Flank — Personenauto vs. Fiets",
        "streetName": "Frieseweg",
        "speedLimit": 50,
        "parties": 2
      }
    },
    {
      "type": "Feature",
      "geometry": {
        "type": "Point",
        "coordinates": [
          4.73001386,
          52.6349467
        ]
      },
      "properties": {
        "date": "2024-01-01",
        "severity": "materieel",
        "year": 2024,
        "description": "Kop/staart — Personenauto vs. Personenauto",
        "streetName": "Van Ostadelaan",
        "speedLimit": 50,
        "parties": 2
      }
    },
    {
      "type": "Feature",
      "geometry": {
        "type": "Point",
        "coordinates": [
          4.77728371,
          52.62277597
        ]
      },
      "properties": {
        "date": "2024-01-01",
        "severity": "materieel",
        "year": 2024,
        "description": "Flank — Personenauto vs. Bestelauto",
        "streetName": "Provincialeweg",
        "speedLimit": 80,
        "parties": 2
      }
    },
    {
      "type": "Feature",
      "geometry": {
        "type": "Point",
        "coordinates": [
          4.79894245,
          52.61618782
        ]
      },
      "properties": {
        "date": "2024-01-01",
        "severity": "materieel",
        "year": 2024,
        "description": "Onbekend — Personenauto vs. Personenauto",
        "streetName": "Noordervaart",
        "speedLimit": 50,
        "parties": 2
      }
    },
    {
      "type": "Feature",
      "geometry": {
        "type": "Point",
        "coordinates": [
          4.74523486,
          52.63098933
        ]
      },
      "properties": {
        "date": "2024-01-01",
        "severity": "materieel",
        "year": 2024,
        "description": "Onbekend — Personenauto",
        "streetName": "Laat",
        "speedLimit": null,
        "parties": 1
      }
    },
    {
      "type": "Feature",
      "geometry": {
        "type": "Point",
        "coordinates": [
          4.7810206,
          52.62765666
        ]
      },
      "properties": {
        "date": "2024-01-01",
        "severity": "materieel",
        "year": 2024,
        "description": "Kop/staart — Personenauto vs. Personenauto",
        "streetName": "Provincialeweg",
        "speedLimit": 80,
        "parties": 3
      }
    },
    {
      "type": "Feature",
      "geometry": {
        "type": "Point",
        "coordinates": [
          4.79542939,
          52.55681884
        ]
      },
      "properties": {
        "date": "2024-01-01",
        "severity": "materieel",
        "year": 2024,
        "description": "Flank — Personenauto vs. Bromfiets",
        "streetName": "Noorderstraat",
        "speedLimit": 50,
        "parties": 2
      }
    },
    {
      "type": "Feature",
      "geometry": {
        "type": "Point",
        "coordinates": [
          4.74045475,
          52.61441184
        ]
      },
      "properties": {
        "date": "2024-01-01",
        "severity": "materieel",
        "year": 2024,
        "description": "Onbekend",
        "streetName": "Verkeersplein Kooimeer",
        "speedLimit": null,
        "parties": 1
      }
    },
    {
      "type": "Feature",
      "geometry": {
        "type": "Point",
        "coordinates": [
          4.77947238,
          52.64252372
        ]
      },
      "properties": {
        "date": "2024-01-01",
        "severity": "materieel",
        "year": 2024,
        "description": "Onbekend — Bestelauto vs. Bromfiets",
        "streetName": "Robbenkoog",
        "speedLimit": 30,
        "parties": 2
      }
    },
    {
      "type": "Feature",
      "geometry": {
        "type": "Point",
        "coordinates": [
          4.74327261,
          52.63299353
        ]
      },
      "properties": {
        "date": "2024-01-01",
        "severity": "letsel",
        "year": 2024,
        "description": "Flank — Vrachtauto vs. Fiets",
        "streetName": "Gasthuisstraat",
        "speedLimit": 30,
        "parties": 2
      }
    },
    {
      "type": "Feature",
      "geometry": {
        "type": "Point",
        "coordinates": [
          4.74953574,
          52.63228336
        ]
      },
      "properties": {
        "date": "2024-01-01",
        "severity": "materieel",
        "year": 2024,
        "description": "Flank — Bestelauto vs. Fiets",
        "streetName": "Marktstraat",
        "speedLimit": 30,
        "parties": 2
      }
    },
    {
      "type": "Feature",
      "geometry": {
        "type": "Point",
        "coordinates": [
          4.74523753,
          52.62217759
        ]
      },
      "properties": {
        "date": "2024-01-01",
        "severity": "materieel",
        "year": 2024,
        "description": "Kop/staart — Personenauto vs. Personenauto",
        "streetName": "Willem de Zwijgerlaan",
        "speedLimit": 50,
        "parties": 2
      }
    },
    {
      "type": "Feature",
      "geometry": {
        "type": "Point",
        "coordinates": [
          4.75110899,
          52.6598618
        ]
      },
      "properties": {
        "date": "2024-01-01",
        "severity": "letsel",
        "year": 2024,
        "description": "Frontaal — Fiets vs. Fiets",
        "streetName": "Laan van Athene",
        "speedLimit": 50,
        "parties": 2
      }
    },
    {
      "type": "Feature",
      "geometry": {
        "type": "Point",
        "coordinates": [
          4.75231254,
          52.6325755
        ]
      },
      "properties": {
        "date": "2024-01-01",
        "severity": "letsel",
        "year": 2024,
        "description": "Flank — Motor vs. Personenauto",
        "streetName": "Kanaalkade",
        "speedLimit": 50,
        "parties": 2
      }
    },
    {
      "type": "Feature",
      "geometry": {
        "type": "Point",
        "coordinates": [
          4.7458099,
          52.63762496
        ]
      },
      "properties": {
        "date": "2024-01-01",
        "severity": "letsel",
        "year": 2024,
        "description": "Flank — Bromfiets vs. Voetganger",
        "streetName": "Helderseweg",
        "speedLimit": 50,
        "parties": 2
      }
    },
    {
      "type": "Feature",
      "geometry": {
        "type": "Point",
        "coordinates": [
          4.79032172,
          52.55705489
        ]
      },
      "properties": {
        "date": "2024-01-01",
        "severity": "letsel",
        "year": 2024,
        "description": "Onbekend — Fiets",
        "streetName": "Oostdijk",
        "speedLimit": 60,
        "parties": 1
      }
    },
    {
      "type": "Feature",
      "geometry": {
        "type": "Point",
        "coordinates": [
          4.74658293,
          52.65575313
        ]
      },
      "properties": {
        "date": "2024-01-01",
        "severity": "materieel",
        "year": 2024,
        "description": "Onbekend",
        "streetName": "Laan van Brussel",
        "speedLimit": 15,
        "parties": 1
      }
    },
    {
      "type": "Feature",
      "geometry": {
        "type": "Point",
        "coordinates": [
          4.74282566,
          52.64900309
        ]
      },
      "properties": {
        "date": "2024-01-01",
        "severity": "letsel",
        "year": 2024,
        "description": "Onbekend — Fiets",
        "streetName": "VLIELANDBRUG",
        "speedLimit": 50,
        "parties": 1
      }
    },
    {
      "type": "Feature",
      "geometry": {
        "type": "Point",
        "coordinates": [
          4.75469706,
          52.63024689
        ]
      },
      "properties": {
        "date": "2024-01-01",
        "severity": "materieel",
        "year": 2024,
        "description": "Onbekend — Personenauto vs. Fiets",
        "streetName": "Luttik Oudorp",
        "speedLimit": null,
        "parties": 2
      }
    },
    {
      "type": "Feature",
      "geometry": {
        "type": "Point",
        "coordinates": [
          4.72844294,
          52.63943962
        ]
      },
      "properties": {
        "date": "2024-01-01",
        "severity": "materieel",
        "year": 2024,
        "description": "Kop/staart — Personenauto vs. Personenauto",
        "streetName": "Bergerweg",
        "speedLimit": 50,
        "parties": 2
      }
    },
    {
      "type": "Feature",
      "geometry": {
        "type": "Point",
        "coordinates": [
          4.73545763,
          52.65108136
        ]
      },
      "properties": {
        "date": "2024-01-01",
        "severity": "materieel",
        "year": 2024,
        "description": "Kop/staart — Personenauto vs. Personenauto",
        "streetName": "Steve Bikoweg",
        "speedLimit": 70,
        "parties": 2
      }
    },
    {
      "type": "Feature",
      "geometry": {
        "type": "Point",
        "coordinates": [
          4.74485058,
          52.64148891
        ]
      },
      "properties": {
        "date": "2024-01-01",
        "severity": "letsel",
        "year": 2024,
        "description": "Flank — Bus vs. Personenauto",
        "streetName": "Lisdoddestraat",
        "speedLimit": 50,
        "parties": 2
      }
    },
    {
      "type": "Feature",
      "geometry": {
        "type": "Point",
        "coordinates": [
          4.7252032,
          52.63963761
        ]
      },
      "properties": {
        "date": "2024-01-01",
        "severity": "materieel",
        "year": 2024,
        "description": "Onbekend",
        "streetName": "Martin Luther Kingweg",
        "speedLimit": 70,
        "parties": 1
      }
    },
    {
      "type": "Feature",
      "geometry": {
        "type": "Point",
        "coordinates": [
          4.7472094,
          52.63574742
        ]
      },
      "properties": {
        "date": "2024-01-01",
        "severity": "letsel",
        "year": 2024,
        "description": "Onbekend — Fiets",
        "streetName": "Geestersingel",
        "speedLimit": 50,
        "parties": 1
      }
    },
    {
      "type": "Feature",
      "geometry": {
        "type": "Point",
        "coordinates": [
          4.76194203,
          52.62999693
        ]
      },
      "properties": {
        "date": "2024-01-01",
        "severity": "letsel",
        "year": 2024,
        "description": "Vast voorwerp — Fiets vs. Overig vast object",
        "streetName": "Nieuwe Schermerweg",
        "speedLimit": 50,
        "parties": 2
      }
    },
    {
      "type": "Feature",
      "geometry": {
        "type": "Point",
        "coordinates": [
          4.78454966,
          52.63249056
        ]
      },
      "properties": {
        "date": "2024-01-01",
        "severity": "materieel",
        "year": 2024,
        "description": "Flank — Personenauto vs. Personenauto",
        "streetName": "Provincialeweg",
        "speedLimit": 80,
        "parties": 2
      }
    },
    {
      "type": "Feature",
      "geometry": {
        "type": "Point",
        "coordinates": [
          4.77268111,
          52.61717775
        ]
      },
      "properties": {
        "date": "2024-01-01",
        "severity": "materieel",
        "year": 2024,
        "description": "Vast voorwerp — Personenauto vs. Overig wegmeubilair",
        "streetName": "Provincialeweg",
        "speedLimit": 80,
        "parties": 2
      }
    },
    {
      "type": "Feature",
      "geometry": {
        "type": "Point",
        "coordinates": [
          4.87617193,
          52.60013691
        ]
      },
      "properties": {
        "date": "2024-01-01",
        "severity": "letsel",
        "year": 2024,
        "description": "Flank — Personenauto vs. Motor",
        "streetName": "Noordervaart",
        "speedLimit": 80,
        "parties": 2
      }
    },
    {
      "type": "Feature",
      "geometry": {
        "type": "Point",
        "coordinates": [
          4.7581505,
          52.64001135
        ]
      },
      "properties": {
        "date": "2024-01-01",
        "severity": "materieel",
        "year": 2024,
        "description": "Flank — Bromfiets vs. Fiets",
        "streetName": "Frieseweg",
        "speedLimit": 50,
        "parties": 2
      }
    },
    {
      "type": "Feature",
      "geometry": {
        "type": "Point",
        "coordinates": [
          4.7162204,
          52.63355964
        ]
      },
      "properties": {
        "date": "2024-01-01",
        "severity": "letsel",
        "year": 2024,
        "description": "Flank — Personenauto vs. Personenauto",
        "streetName": "Martin Luther Kingweg",
        "speedLimit": 80,
        "parties": 2
      }
    },
    {
      "type": "Feature",
      "geometry": {
        "type": "Point",
        "coordinates": [
          4.73277016,
          52.61970576
        ]
      },
      "properties": {
        "date": "2024-01-01",
        "severity": "materieel",
        "year": 2024,
        "description": "Kop/staart — Personenauto vs. Personenauto",
        "streetName": "Kennemerstraatweg",
        "speedLimit": 50,
        "parties": 3
      }
    },
    {
      "type": "Feature",
      "geometry": {
        "type": "Point",
        "coordinates": [
          4.73857373,
          52.63542293
        ]
      },
      "properties": {
        "date": "2024-01-01",
        "severity": "materieel",
        "year": 2024,
        "description": "Kop/staart — Personenauto vs. Personenauto",
        "streetName": "Scharlo",
        "speedLimit": 50,
        "parties": 3
      }
    },
    {
      "type": "Feature",
      "geometry": {
        "type": "Point",
        "coordinates": [
          4.73519127,
          52.60892741
        ]
      },
      "properties": {
        "date": "2024-01-01",
        "severity": "materieel",
        "year": 2024,
        "description": "Onbekend",
        "streetName": "Rijksweg 9",
        "speedLimit": 100,
        "parties": 1
      }
    },
    {
      "type": "Feature",
      "geometry": {
        "type": "Point",
        "coordinates": [
          4.73520961,
          52.62164479
        ]
      },
      "properties": {
        "date": "2024-01-01",
        "severity": "materieel",
        "year": 2024,
        "description": "Kop/staart — Personenauto vs. Personenauto",
        "streetName": "Kennemerstraatweg",
        "speedLimit": 50,
        "parties": 2
      }
    },
    {
      "type": "Feature",
      "geometry": {
        "type": "Point",
        "coordinates": [
          4.78911691,
          52.63599634
        ]
      },
      "properties": {
        "date": "2024-01-01",
        "severity": "materieel",
        "year": 2024,
        "description": "Flank — Bestelauto vs. Personenauto",
        "streetName": "Provincialeweg",
        "speedLimit": 80,
        "parties": 2
      }
    },
    {
      "type": "Feature",
      "geometry": {
        "type": "Point",
        "coordinates": [
          4.72532688,
          52.63771745
        ]
      },
      "properties": {
        "date": "2024-01-01",
        "severity": "materieel",
        "year": 2024,
        "description": "Flank — Bromfiets vs. Fiets",
        "streetName": "Steeslootpad",
        "speedLimit": 50,
        "parties": 2
      }
    },
    {
      "type": "Feature",
      "geometry": {
        "type": "Point",
        "coordinates": [
          4.76237495,
          52.63006358
        ]
      },
      "properties": {
        "date": "2024-01-01",
        "severity": "materieel",
        "year": 2024,
        "description": "Flank — Personenauto vs. Personenauto",
        "streetName": "Nieuwe Schermerweg",
        "speedLimit": 50,
        "parties": 2
      }
    },
    {
      "type": "Feature",
      "geometry": {
        "type": "Point",
        "coordinates": [
          4.74219308,
          52.64640655
        ]
      },
      "properties": {
        "date": "2024-01-01",
        "severity": "materieel",
        "year": 2024,
        "description": "Kop/staart — Personenauto vs. Personenauto",
        "streetName": "Huiswaarderweg",
        "speedLimit": 80,
        "parties": 3
      }
    },
    {
      "type": "Feature",
      "geometry": {
        "type": "Point",
        "coordinates": [
          4.86178775,
          52.60310286
        ]
      },
      "properties": {
        "date": "2024-01-01",
        "severity": "materieel",
        "year": 2024,
        "description": "Kop/staart — Bestelauto vs. Personenauto",
        "streetName": "Noordervaart",
        "speedLimit": 80,
        "parties": 2
      }
    },
    {
      "type": "Feature",
      "geometry": {
        "type": "Point",
        "coordinates": [
          4.73163193,
          52.64661003
        ]
      },
      "properties": {
        "date": "2024-01-01",
        "severity": "materieel",
        "year": 2024,
        "description": "Kop/staart — Personenauto vs. Personenauto",
        "streetName": "Martin Luther Kingweg",
        "speedLimit": 80,
        "parties": 2
      }
    },
    {
      "type": "Feature",
      "geometry": {
        "type": "Point",
        "coordinates": [
          4.76523618,
          52.64864874
        ]
      },
      "properties": {
        "date": "2024-01-01",
        "severity": "letsel",
        "year": 2024,
        "description": "Kop/staart — Personenauto vs. Personenauto",
        "streetName": "Nollenweg",
        "speedLimit": 70,
        "parties": 4
      }
    },
    {
      "type": "Feature",
      "geometry": {
        "type": "Point",
        "coordinates": [
          4.75866778,
          52.66877985
        ]
      },
      "properties": {
        "date": "2024-01-01",
        "severity": "letsel",
        "year": 2024,
        "description": "Kop/staart — Personenauto vs. Bromfiets",
        "streetName": "Saskerstraat",
        "speedLimit": 30,
        "parties": 2
      }
    },
    {
      "type": "Feature",
      "geometry": {
        "type": "Point",
        "coordinates": [
          4.74829694,
          52.64862813
        ]
      },
      "properties": {
        "date": "2024-01-01",
        "severity": "letsel",
        "year": 2024,
        "description": "Flank — Fiets vs. Personenauto",
        "streetName": "Kanaaldijk",
        "speedLimit": 50,
        "parties": 2
      }
    },
    {
      "type": "Feature",
      "geometry": {
        "type": "Point",
        "coordinates": [
          4.7394323,
          52.61032538
        ]
      },
      "properties": {
        "date": "2024-01-01",
        "severity": "materieel",
        "year": 2024,
        "description": "Onbekend",
        "streetName": "Rijksweg 9",
        "speedLimit": 100,
        "parties": 1
      }
    },
    {
      "type": "Feature",
      "geometry": {
        "type": "Point",
        "coordinates": [
          4.73755791,
          52.63410591
        ]
      },
      "properties": {
        "date": "2024-01-01",
        "severity": "materieel",
        "year": 2024,
        "description": "Eenzijdig — Motor vs. Personenauto",
        "streetName": "Westerweg",
        "speedLimit": 50,
        "parties": 2
      }
    },
    {
      "type": "Feature",
      "geometry": {
        "type": "Point",
        "coordinates": [
          4.7783389,
          52.62341872
        ]
      },
      "properties": {
        "date": "2024-01-01",
        "severity": "materieel",
        "year": 2024,
        "description": "Onbekend",
        "streetName": "Nieuwe Schermerweg",
        "speedLimit": 50,
        "parties": 1
      }
    },
    {
      "type": "Feature",
      "geometry": {
        "type": "Point",
        "coordinates": [
          4.77266817,
          52.62674776
        ]
      },
      "properties": {
        "date": "2024-01-01",
        "severity": "materieel",
        "year": 2024,
        "description": "Kop/staart — Personenauto vs. Bestelauto",
        "streetName": "Edisonweg",
        "speedLimit": 50,
        "parties": 3
      }
    },
    {
      "type": "Feature",
      "geometry": {
        "type": "Point",
        "coordinates": [
          4.73868263,
          52.61862356
        ]
      },
      "properties": {
        "date": "2024-01-01",
        "severity": "letsel",
        "year": 2024,
        "description": "Eenzijdig — Fiets",
        "streetName": "Amalia van Solmsstraat",
        "speedLimit": 30,
        "parties": 1
      }
    },
    {
      "type": "Feature",
      "geometry": {
        "type": "Point",
        "coordinates": [
          4.78120752,
          52.63381529
        ]
      },
      "properties": {
        "date": "2024-01-01",
        "severity": "materieel",
        "year": 2024,
        "description": "Onbekend — Personenauto",
        "streetName": "Schermerdijk",
        "speedLimit": 60,
        "parties": 1
      }
    },
    {
      "type": "Feature",
      "geometry": {
        "type": "Point",
        "coordinates": [
          4.73293125,
          52.61817784
        ]
      },
      "properties": {
        "date": "2024-01-01",
        "severity": "materieel",
        "year": 2024,
        "description": "Flank — Bestelauto vs. Personenauto",
        "streetName": "Heilooër Tolweg",
        "speedLimit": 70,
        "parties": 2
      }
    },
    {
      "type": "Feature",
      "geometry": {
        "type": "Point",
        "coordinates": [
          4.74964658,
          52.61904996
        ]
      },
      "properties": {
        "date": "2024-01-01",
        "severity": "materieel",
        "year": 2024,
        "description": "Onbekend — Personenauto vs. Personenauto",
        "streetName": "Koelmalaan",
        "speedLimit": null,
        "parties": 2
      }
    },
    {
      "type": "Feature",
      "geometry": {
        "type": "Point",
        "coordinates": [
          4.77887676,
          52.52962047
        ]
      },
      "properties": {
        "date": "2024-01-01",
        "severity": "materieel",
        "year": 2024,
        "description": "Onbekend",
        "streetName": "Provincialeweg",
        "speedLimit": 80,
        "parties": 1
      }
    },
    {
      "type": "Feature",
      "geometry": {
        "type": "Point",
        "coordinates": [
          4.73732331,
          52.6158993
        ]
      },
      "properties": {
        "date": "2024-01-01",
        "severity": "materieel",
        "year": 2024,
        "description": "Kop/staart — Personenauto vs. Personenauto",
        "streetName": "Heilooër Tolweg",
        "speedLimit": 70,
        "parties": 3
      }
    },
    {
      "type": "Feature",
      "geometry": {
        "type": "Point",
        "coordinates": [
          4.79117658,
          52.63833047
        ]
      },
      "properties": {
        "date": "2024-01-01",
        "severity": "materieel",
        "year": 2024,
        "description": "Kop/staart — Motor vs. Bestelauto",
        "streetName": "Provincialeweg",
        "speedLimit": 80,
        "parties": 3
      }
    },
    {
      "type": "Feature",
      "geometry": {
        "type": "Point",
        "coordinates": [
          4.73918925,
          52.61241851
        ]
      },
      "properties": {
        "date": "2024-01-01",
        "severity": "materieel",
        "year": 2024,
        "description": "Onbekend",
        "streetName": "Rijksweg 9",
        "speedLimit": 100,
        "parties": 1
      }
    },
    {
      "type": "Feature",
      "geometry": {
        "type": "Point",
        "coordinates": [
          4.76583778,
          52.61614393
        ]
      },
      "properties": {
        "date": "2024-01-01",
        "severity": "materieel",
        "year": 2024,
        "description": "Onbekend — Bromfiets vs. Personenauto",
        "streetName": "Laanenderweg",
        "speedLimit": 50,
        "parties": 2
      }
    },
    {
      "type": "Feature",
      "geometry": {
        "type": "Point",
        "coordinates": [
          4.78089279,
          52.61981142
        ]
      },
      "properties": {
        "date": "2024-01-01",
        "severity": "letsel",
        "year": 2024,
        "description": "Los voorwerp — Fiets vs. Bestelauto",
        "streetName": "Noordervaart",
        "speedLimit": 80,
        "parties": 2
      }
    },
    {
      "type": "Feature",
      "geometry": {
        "type": "Point",
        "coordinates": [
          4.83083969,
          52.63275629
        ]
      },
      "properties": {
        "date": "2024-01-01",
        "severity": "materieel",
        "year": 2024,
        "description": "Onbekend — Motor",
        "streetName": "Huygendijk",
        "speedLimit": null,
        "parties": 1
      }
    },
    {
      "type": "Feature",
      "geometry": {
        "type": "Point",
        "coordinates": [
          4.74393545,
          52.64996047
        ]
      },
      "properties": {
        "date": "2024-01-01",
        "severity": "letsel",
        "year": 2024,
        "description": "Vast voorwerp — Personenauto vs. Lichtmast",
        "streetName": "Kanaaldijk",
        "speedLimit": 50,
        "parties": 4
      }
    },
    {
      "type": "Feature",
      "geometry": {
        "type": "Point",
        "coordinates": [
          4.77911953,
          52.62522521
        ]
      },
      "properties": {
        "date": "2024-01-01",
        "severity": "materieel",
        "year": 2024,
        "description": "Vast voorwerp — Personenauto vs. Overig wegmeubilair",
        "streetName": "Provincialeweg",
        "speedLimit": 50,
        "parties": 3
      }
    },
    {
      "type": "Feature",
      "geometry": {
        "type": "Point",
        "coordinates": [
          4.72451482,
          52.6428669
        ]
      },
      "properties": {
        "date": "2024-01-01",
        "severity": "materieel",
        "year": 2024,
        "description": "Flank — Personenauto vs. Personenauto",
        "streetName": "Bergerweg",
        "speedLimit": 50,
        "parties": 2
      }
    },
    {
      "type": "Feature",
      "geometry": {
        "type": "Point",
        "coordinates": [
          4.74337532,
          52.61740394
        ]
      },
      "properties": {
        "date": "2024-01-01",
        "severity": "materieel",
        "year": 2024,
        "description": "Onbekend — Bromfiets",
        "streetName": "Vondelstraat",
        "speedLimit": 30,
        "parties": 1
      }
    },
    {
      "type": "Feature",
      "geometry": {
        "type": "Point",
        "coordinates": [
          4.73962325,
          52.62690443
        ]
      },
      "properties": {
        "date": "2024-01-01",
        "severity": "letsel",
        "year": 2024,
        "description": "Onbekend — Fiets",
        "streetName": "Kennemerstraatweg",
        "speedLimit": 50,
        "parties": 1
      }
    },
    {
      "type": "Feature",
      "geometry": {
        "type": "Point",
        "coordinates": [
          4.76380575,
          52.60358715
        ]
      },
      "properties": {
        "date": "2024-01-01",
        "severity": "materieel",
        "year": 2024,
        "description": "Onbekend — Personenauto",
        "streetName": "Westdijk",
        "speedLimit": 80,
        "parties": 1
      }
    },
    {
      "type": "Feature",
      "geometry": {
        "type": "Point",
        "coordinates": [
          4.77802674,
          52.53735725
        ]
      },
      "properties": {
        "date": "2024-01-01",
        "severity": "materieel",
        "year": 2024,
        "description": "Onbekend — Bromfiets",
        "streetName": "Provincialeweg",
        "speedLimit": 80,
        "parties": 1
      }
    },
    {
      "type": "Feature",
      "geometry": {
        "type": "Point",
        "coordinates": [
          4.75708142,
          52.65077639
        ]
      },
      "properties": {
        "date": "2024-01-01",
        "severity": "materieel",
        "year": 2024,
        "description": "Flank — Personenauto vs. Personenauto",
        "streetName": "Laan van Straatsburg",
        "speedLimit": 70,
        "parties": 3
      }
    },
    {
      "type": "Feature",
      "geometry": {
        "type": "Point",
        "coordinates": [
          4.76612688,
          52.65206313
        ]
      },
      "properties": {
        "date": "2024-01-01",
        "severity": "materieel",
        "year": 2024,
        "description": "Flank — Personenauto vs. Personenauto",
        "streetName": "Schagerweg",
        "speedLimit": 50,
        "parties": 2
      }
    },
    {
      "type": "Feature",
      "geometry": {
        "type": "Point",
        "coordinates": [
          4.7761128,
          52.62113525
        ]
      },
      "properties": {
        "date": "2024-01-01",
        "severity": "materieel",
        "year": 2024,
        "description": "Kop/staart — Personenauto vs. Personenauto",
        "streetName": "Provincialeweg",
        "speedLimit": 80,
        "parties": 4
      }
    },
    {
      "type": "Feature",
      "geometry": {
        "type": "Point",
        "coordinates": [
          4.74456284,
          52.63370238
        ]
      },
      "properties": {
        "date": "2024-01-01",
        "severity": "materieel",
        "year": 2024,
        "description": "Onbekend",
        "streetName": "Paternosterstraat",
        "speedLimit": null,
        "parties": 1
      }
    },
    {
      "type": "Feature",
      "geometry": {
        "type": "Point",
        "coordinates": [
          4.76323359,
          52.61811359
        ]
      },
      "properties": {
        "date": "2024-01-01",
        "severity": "materieel",
        "year": 2024,
        "description": "Kop/staart — Personenauto vs. Bestelauto",
        "streetName": "Koelmalaan",
        "speedLimit": 50,
        "parties": 2
      }
    },
    {
      "type": "Feature",
      "geometry": {
        "type": "Point",
        "coordinates": [
          4.75834034,
          52.65572659
        ]
      },
      "properties": {
        "date": "2024-01-01",
        "severity": "letsel",
        "year": 2024,
        "description": "Onbekend — Personenauto vs. Fiets",
        "streetName": "Europaplein",
        "speedLimit": 50,
        "parties": 2
      }
    },
    {
      "type": "Feature",
      "geometry": {
        "type": "Point",
        "coordinates": [
          4.75324177,
          52.63134217
        ]
      },
      "properties": {
        "date": "2024-01-01",
        "severity": "materieel",
        "year": 2024,
        "description": "Flank — Personenauto vs. Fiets",
        "streetName": "Spanjaardstraat",
        "speedLimit": 30,
        "parties": 2
      }
    },
    {
      "type": "Feature",
      "geometry": {
        "type": "Point",
        "coordinates": [
          4.73569029,
          52.62219702
        ]
      },
      "properties": {
        "date": "2024-01-01",
        "severity": "materieel",
        "year": 2024,
        "description": "Flank — Bestelauto vs. Personenauto",
        "streetName": "Kennemerstraatweg",
        "speedLimit": 50,
        "parties": 3
      }
    },
    {
      "type": "Feature",
      "geometry": {
        "type": "Point",
        "coordinates": [
          4.77012475,
          52.65885321
        ]
      },
      "properties": {
        "date": "2024-01-01",
        "severity": "materieel",
        "year": 2024,
        "description": "Onbekend — Personenauto",
        "streetName": "Schagerweg",
        "speedLimit": 70,
        "parties": 1
      }
    },
    {
      "type": "Feature",
      "geometry": {
        "type": "Point",
        "coordinates": [
          4.76596341,
          52.61672231
        ]
      },
      "properties": {
        "date": "2024-01-01",
        "severity": "letsel",
        "year": 2024,
        "description": "Onbekend — Fiets",
        "streetName": "Provincialeweg",
        "speedLimit": null,
        "parties": 1
      }
    },
    {
      "type": "Feature",
      "geometry": {
        "type": "Point",
        "coordinates": [
          4.75009091,
          52.63366951
        ]
      },
      "properties": {
        "date": "2024-01-01",
        "severity": "letsel",
        "year": 2024,
        "description": "Voetganger — e-bike vs. Voetganger",
        "streetName": "RINGERSBRUG",
        "speedLimit": 50,
        "parties": 2
      }
    },
    {
      "type": "Feature",
      "geometry": {
        "type": "Point",
        "coordinates": [
          4.7603256,
          52.60620192
        ]
      },
      "properties": {
        "date": "2024-01-01",
        "severity": "materieel",
        "year": 2024,
        "description": "Flank",
        "streetName": "Zirkoonstraat",
        "speedLimit": 50,
        "parties": 2
      }
    },
    {
      "type": "Feature",
      "geometry": {
        "type": "Point",
        "coordinates": [
          4.74791755,
          52.63578058
        ]
      },
      "properties": {
        "date": "2024-01-01",
        "severity": "materieel",
        "year": 2024,
        "description": "Onbekend — Fiets",
        "streetName": "Noorderstraat",
        "speedLimit": 50,
        "parties": 1
      }
    },
    {
      "type": "Feature",
      "geometry": {
        "type": "Point",
        "coordinates": [
          4.74569423,
          52.63665629
        ]
      },
      "properties": {
        "date": "2024-01-01",
        "severity": "materieel",
        "year": 2024,
        "description": "Voetganger — Personenauto vs. Voetganger",
        "streetName": "Helderseweg",
        "speedLimit": 50,
        "parties": 2
      }
    },
    {
      "type": "Feature",
      "geometry": {
        "type": "Point",
        "coordinates": [
          4.77819985,
          52.54391458
        ]
      },
      "properties": {
        "date": "2024-01-01",
        "severity": "materieel",
        "year": 2024,
        "description": "Onbekend — Personenauto",
        "streetName": "Provincialeweg",
        "speedLimit": 80,
        "parties": 1
      }
    },
    {
      "type": "Feature",
      "geometry": {
        "type": "Point",
        "coordinates": [
          4.74783372,
          52.62033026
        ]
      },
      "properties": {
        "date": "2024-01-01",
        "severity": "materieel",
        "year": 2024,
        "description": "Kop/staart — Personenauto vs. Personenauto",
        "streetName": "Vondelstraat",
        "speedLimit": 50,
        "parties": 2
      }
    },
    {
      "type": "Feature",
      "geometry": {
        "type": "Point",
        "coordinates": [
          4.77921263,
          52.62535866
        ]
      },
      "properties": {
        "date": "2024-01-01",
        "severity": "materieel",
        "year": 2024,
        "description": "Onbekend — Motor",
        "streetName": "Provincialeweg",
        "speedLimit": 80,
        "parties": 1
      }
    },
    {
      "type": "Feature",
      "geometry": {
        "type": "Point",
        "coordinates": [
          4.75495144,
          52.63252858
        ]
      },
      "properties": {
        "date": "2024-01-01",
        "severity": "materieel",
        "year": 2024,
        "description": "Flank — Bestelauto",
        "streetName": "Randersdijk",
        "speedLimit": 50,
        "parties": 3
      }
    },
    {
      "type": "Feature",
      "geometry": {
        "type": "Point",
        "coordinates": [
          4.77493809,
          52.61950502
        ]
      },
      "properties": {
        "date": "2024-01-01",
        "severity": "materieel",
        "year": 2024,
        "description": "Frontaal — Personenauto vs. Personenauto",
        "streetName": "Westdijk",
        "speedLimit": 80,
        "parties": 2
      }
    },
    {
      "type": "Feature",
      "geometry": {
        "type": "Point",
        "coordinates": [
          4.74439324,
          52.66224983
        ]
      },
      "properties": {
        "date": "2024-01-01",
        "severity": "materieel",
        "year": 2024,
        "description": "Onbekend — Personenauto vs. Trekker",
        "streetName": "Helderseweg",
        "speedLimit": 70,
        "parties": 2
      }
    },
    {
      "type": "Feature",
      "geometry": {
        "type": "Point",
        "coordinates": [
          4.7487465,
          52.62482533
        ]
      },
      "properties": {
        "date": "2024-01-01",
        "severity": "letsel",
        "year": 2024,
        "description": "Onbekend — Fiets",
        "streetName": "Dr.Schaepmankade",
        "speedLimit": 50,
        "parties": 1
      }
    },
    {
      "type": "Feature",
      "geometry": {
        "type": "Point",
        "coordinates": [
          4.74752902,
          52.65539965
        ]
      },
      "properties": {
        "date": "2024-01-01",
        "severity": "materieel",
        "year": 2024,
        "description": "Eenzijdig — Motor",
        "streetName": "Laan van Brussel",
        "speedLimit": 50,
        "parties": 1
      }
    },
    {
      "type": "Feature",
      "geometry": {
        "type": "Point",
        "coordinates": [
          4.71589586,
          52.62559382
        ]
      },
      "properties": {
        "date": "2024-01-01",
        "severity": "materieel",
        "year": 2024,
        "description": "Onbekend — Personenauto",
        "streetName": "Martin Luther Kingweg",
        "speedLimit": null,
        "parties": 1
      }
    },
    {
      "type": "Feature",
      "geometry": {
        "type": "Point",
        "coordinates": [
          4.74046322,
          52.63462706
        ]
      },
      "properties": {
        "date": "2024-01-01",
        "severity": "materieel",
        "year": 2024,
        "description": "Onbekend — Snorfiets vs. Personenauto",
        "streetName": "Geesterweg",
        "speedLimit": 50,
        "parties": 2
      }
    },
    {
      "type": "Feature",
      "geometry": {
        "type": "Point",
        "coordinates": [
          4.76338512,
          52.64237803
        ]
      },
      "properties": {
        "date": "2024-01-01",
        "severity": "letsel",
        "year": 2024,
        "description": "Flank — Personenauto vs. Fiets",
        "streetName": "Hertog Aalbrechtweg",
        "speedLimit": 50,
        "parties": 2
      }
    },
    {
      "type": "Feature",
      "geometry": {
        "type": "Point",
        "coordinates": [
          4.75726102,
          52.63372153
        ]
      },
      "properties": {
        "date": "2024-01-01",
        "severity": "materieel",
        "year": 2024,
        "description": "Onbekend — Personenauto",
        "streetName": "Ooievaarstraat",
        "speedLimit": 30,
        "parties": 1
      }
    },
    {
      "type": "Feature",
      "geometry": {
        "type": "Point",
        "coordinates": [
          4.74682238,
          52.64689877
        ]
      },
      "properties": {
        "date": "2024-01-01",
        "severity": "materieel",
        "year": 2024,
        "description": "Kop/staart — Personenauto vs. Bestelauto",
        "streetName": "Huiswaarderweg",
        "speedLimit": 70,
        "parties": 2
      }
    },
    {
      "type": "Feature",
      "geometry": {
        "type": "Point",
        "coordinates": [
          4.72985452,
          52.63899011
        ]
      },
      "properties": {
        "date": "2024-01-01",
        "severity": "letsel",
        "year": 2024,
        "description": "Eenzijdig — Fiets",
        "streetName": "Bergerweg",
        "speedLimit": 15,
        "parties": 1
      }
    },
    {
      "type": "Feature",
      "geometry": {
        "type": "Point",
        "coordinates": [
          4.77239833,
          52.66216661
        ]
      },
      "properties": {
        "date": "2024-01-01",
        "severity": "materieel",
        "year": 2024,
        "description": "Onbekend — Personenauto vs. Personenauto",
        "streetName": "Schagerweg",
        "speedLimit": 70,
        "parties": 3
      }
    },
    {
      "type": "Feature",
      "geometry": {
        "type": "Point",
        "coordinates": [
          4.73119435,
          52.61879943
        ]
      },
      "properties": {
        "date": "2024-01-01",
        "severity": "materieel",
        "year": 2024,
        "description": "Frontaal — Personenauto vs. Personenauto",
        "streetName": "Kennemerstraatweg",
        "speedLimit": 50,
        "parties": 3
      }
    },
    {
      "type": "Feature",
      "geometry": {
        "type": "Point",
        "coordinates": [
          4.78981788,
          52.65337089
        ]
      },
      "properties": {
        "date": "2024-01-01",
        "severity": "materieel",
        "year": 2024,
        "description": "Kop/staart — Bestelauto vs. Bestelauto",
        "streetName": "Berenkoog",
        "speedLimit": 50,
        "parties": 3
      }
    },
    {
      "type": "Feature",
      "geometry": {
        "type": "Point",
        "coordinates": [
          4.76689692,
          52.61664934
        ]
      },
      "properties": {
        "date": "2024-01-01",
        "severity": "materieel",
        "year": 2024,
        "description": "Onbekend — Personenauto",
        "streetName": "Provincialeweg",
        "speedLimit": 80,
        "parties": 1
      }
    },
    {
      "type": "Feature",
      "geometry": {
        "type": "Point",
        "coordinates": [
          4.7728015,
          52.62679907
        ]
      },
      "properties": {
        "date": "2024-01-01",
        "severity": "materieel",
        "year": 2024,
        "description": "Vast voorwerp — Personenauto vs. Overig wegmeubilair",
        "streetName": "Nieuwe Schermerweg",
        "speedLimit": 50,
        "parties": 2
      }
    },
    {
      "type": "Feature",
      "geometry": {
        "type": "Point",
        "coordinates": [
          4.77924169,
          52.54834929
        ]
      },
      "properties": {
        "date": "2024-01-01",
        "severity": "materieel",
        "year": 2024,
        "description": "Vast voorwerp — Personenauto vs. Overig wegmeubilair",
        "streetName": "Provincialeweg",
        "speedLimit": 80,
        "parties": 2
      }
    },
    {
      "type": "Feature",
      "geometry": {
        "type": "Point",
        "coordinates": [
          4.76682169,
          52.62895295
        ]
      },
      "properties": {
        "date": "2024-01-01",
        "severity": "materieel",
        "year": 2024,
        "description": "Kop/staart — Personenauto vs. Personenauto",
        "streetName": "Nieuwe Schermerweg",
        "speedLimit": 50,
        "parties": 2
      }
    },
    {
      "type": "Feature",
      "geometry": {
        "type": "Point",
        "coordinates": [
          4.78217782,
          52.630249
        ]
      },
      "properties": {
        "date": "2024-01-01",
        "severity": "materieel",
        "year": 2024,
        "description": "Onbekend — Bestelauto",
        "streetName": "Provincialeweg",
        "speedLimit": 80,
        "parties": 1
      }
    },
    {
      "type": "Feature",
      "geometry": {
        "type": "Point",
        "coordinates": [
          4.73164358,
          52.61876523
        ]
      },
      "properties": {
        "date": "2024-01-01",
        "severity": "materieel",
        "year": 2024,
        "description": "Flank — Personenauto",
        "streetName": "Heilooër Tolweg",
        "speedLimit": 70,
        "parties": 3
      }
    },
    {
      "type": "Feature",
      "geometry": {
        "type": "Point",
        "coordinates": [
          4.73352378,
          52.64418189
        ]
      },
      "properties": {
        "date": "2024-01-01",
        "severity": "letsel",
        "year": 2024,
        "description": "Flank — Fiets vs. Fiets",
        "streetName": "Beethovensingel",
        "speedLimit": 50,
        "parties": 3
      }
    },
    {
      "type": "Feature",
      "geometry": {
        "type": "Point",
        "coordinates": [
          4.76156402,
          52.64448946
        ]
      },
      "properties": {
        "date": "2024-01-01",
        "severity": "materieel",
        "year": 2024,
        "description": "Flank — Personenauto vs. Personenauto",
        "streetName": "Schinkelwaard",
        "speedLimit": 50,
        "parties": 2
      }
    },
    {
      "type": "Feature",
      "geometry": {
        "type": "Point",
        "coordinates": [
          4.71900775,
          52.62555798
        ]
      },
      "properties": {
        "date": "2024-01-01",
        "severity": "letsel",
        "year": 2024,
        "description": "Flank — Personenauto vs. Fiets",
        "streetName": "Mesdaglaan",
        "speedLimit": 50,
        "parties": 2
      }
    },
    {
      "type": "Feature",
      "geometry": {
        "type": "Point",
        "coordinates": [
          4.73853385,
          52.64941648
        ]
      },
      "properties": {
        "date": "2024-01-01",
        "severity": "letsel",
        "year": 2024,
        "description": "Flank — Personenauto vs. Fiets",
        "streetName": "Ohmstraat",
        "speedLimit": 15,
        "parties": 2
      }
    },
    {
      "type": "Feature",
      "geometry": {
        "type": "Point",
        "coordinates": [
          4.73532103,
          52.64496715
        ]
      },
      "properties": {
        "date": "2024-01-01",
        "severity": "materieel",
        "year": 2024,
        "description": "Flank — Personenauto vs. Bestelauto",
        "streetName": "Offenbachstraat",
        "speedLimit": 30,
        "parties": 2
      }
    },
    {
      "type": "Feature",
      "geometry": {
        "type": "Point",
        "coordinates": [
          4.76023324,
          52.61818508
        ]
      },
      "properties": {
        "date": "2024-01-01",
        "severity": "letsel",
        "year": 2024,
        "description": "Frontaal — Personenauto vs. Personenauto",
        "streetName": "Koelmalaan",
        "speedLimit": 50,
        "parties": 3
      }
    },
    {
      "type": "Feature",
      "geometry": {
        "type": "Point",
        "coordinates": [
          4.77873982,
          52.62434707
        ]
      },
      "properties": {
        "date": "2024-01-01",
        "severity": "materieel",
        "year": 2024,
        "description": "Kop/staart — Personenauto vs. Personenauto",
        "streetName": "Provincialeweg",
        "speedLimit": 80,
        "parties": 2
      }
    },
    {
      "type": "Feature",
      "geometry": {
        "type": "Point",
        "coordinates": [
          4.72007213,
          52.63199245
        ]
      },
      "properties": {
        "date": "2024-01-01",
        "severity": "materieel",
        "year": 2024,
        "description": "Eenzijdig — Fiets",
        "streetName": "Van de Veldelaan",
        "speedLimit": 50,
        "parties": 1
      }
    },
    {
      "type": "Feature",
      "geometry": {
        "type": "Point",
        "coordinates": [
          4.76337896,
          52.66585047
        ]
      },
      "properties": {
        "date": "2024-01-01",
        "severity": "letsel",
        "year": 2024,
        "description": "Onbekend — Personenauto vs. Fiets",
        "streetName": "Laan van Parijs",
        "speedLimit": 50,
        "parties": 2
      }
    },
    {
      "type": "Feature",
      "geometry": {
        "type": "Point",
        "coordinates": [
          4.78290523,
          52.63104608
        ]
      },
      "properties": {
        "date": "2024-01-01",
        "severity": "materieel",
        "year": 2024,
        "description": "Flank — Trekker vs. Personenauto",
        "streetName": "Provincialeweg",
        "speedLimit": 80,
        "parties": 2
      }
    },
    {
      "type": "Feature",
      "geometry": {
        "type": "Point",
        "coordinates": [
          4.75053801,
          52.61707482
        ]
      },
      "properties": {
        "date": "2024-01-01",
        "severity": "materieel",
        "year": 2024,
        "description": "Onbekend — Personenauto",
        "streetName": "Thomas a Kempislaan",
        "speedLimit": 30,
        "parties": 1
      }
    },
    {
      "type": "Feature",
      "geometry": {
        "type": "Point",
        "coordinates": [
          4.75349511,
          52.6462831
        ]
      },
      "properties": {
        "date": "2024-01-01",
        "severity": "letsel",
        "year": 2024,
        "description": "Flank — Personenauto vs. Fiets",
        "streetName": "Muiderwaard",
        "speedLimit": 30,
        "parties": 2
      }
    },
    {
      "type": "Feature",
      "geometry": {
        "type": "Point",
        "coordinates": [
          4.74286711,
          52.66080018
        ]
      },
      "properties": {
        "date": "2024-01-01",
        "severity": "materieel",
        "year": 2024,
        "description": "Onbekend",
        "streetName": "Steve Bikoweg",
        "speedLimit": 80,
        "parties": 1
      }
    },
    {
      "type": "Feature",
      "geometry": {
        "type": "Point",
        "coordinates": [
          4.75890134,
          52.65516095
        ]
      },
      "properties": {
        "date": "2024-01-01",
        "severity": "materieel",
        "year": 2024,
        "description": "Onbekend — Personenauto vs. Fiets",
        "streetName": "Laan van Troyes",
        "speedLimit": 30,
        "parties": 2
      }
    },
    {
      "type": "Feature",
      "geometry": {
        "type": "Point",
        "coordinates": [
          4.73600238,
          52.62652098
        ]
      },
      "properties": {
        "date": "2024-01-01",
        "severity": "materieel",
        "year": 2024,
        "description": "Vast voorwerp — Personenauto vs. Overig vast object",
        "streetName": "Wilhelminalaan",
        "speedLimit": 30,
        "parties": 2
      }
    },
    {
      "type": "Feature",
      "geometry": {
        "type": "Point",
        "coordinates": [
          4.75978918,
          52.61843904
        ]
      },
      "properties": {
        "date": "2024-01-01",
        "severity": "materieel",
        "year": 2024,
        "description": "Flank — Personenauto vs. Fiets",
        "streetName": "Bestevaerstraat",
        "speedLimit": 50,
        "parties": 2
      }
    },
    {
      "type": "Feature",
      "geometry": {
        "type": "Point",
        "coordinates": [
          4.78508333,
          52.55694119
        ]
      },
      "properties": {
        "date": "2024-01-01",
        "severity": "letsel",
        "year": 2024,
        "description": "Voetganger — Fiets vs. Voetganger",
        "streetName": "Zuiddijk",
        "speedLimit": 60,
        "parties": 2
      }
    },
    {
      "type": "Feature",
      "geometry": {
        "type": "Point",
        "coordinates": [
          4.71941919,
          52.62535667
        ]
      },
      "properties": {
        "date": "2024-01-01",
        "severity": "materieel",
        "year": 2024,
        "description": "Onbekend — Vrachtauto",
        "streetName": "Picassolaan",
        "speedLimit": 50,
        "parties": 1
      }
    },
    {
      "type": "Feature",
      "geometry": {
        "type": "Point",
        "coordinates": [
          4.78019519,
          52.62289118
        ]
      },
      "properties": {
        "date": "2024-01-01",
        "severity": "materieel",
        "year": 2024,
        "description": "Kop/staart — Personenauto vs. Bestelauto",
        "streetName": "Noordervaart",
        "speedLimit": 80,
        "parties": 3
      }
    },
    {
      "type": "Feature",
      "geometry": {
        "type": "Point",
        "coordinates": [
          4.75557957,
          52.64168779
        ]
      },
      "properties": {
        "date": "2024-01-01",
        "severity": "materieel",
        "year": 2024,
        "description": "Flank — Personenauto vs. Fiets",
        "streetName": "Drechterwaard",
        "speedLimit": 30,
        "parties": 2
      }
    },
    {
      "type": "Feature",
      "geometry": {
        "type": "Point",
        "coordinates": [
          4.74734234,
          52.63728021
        ]
      },
      "properties": {
        "date": "2024-01-01",
        "severity": "letsel",
        "year": 2024,
        "description": "Onbekend — Personenauto vs. Fiets",
        "streetName": "Noorderkade",
        "speedLimit": 50,
        "parties": 2
      }
    },
    {
      "type": "Feature",
      "geometry": {
        "type": "Point",
        "coordinates": [
          4.74139389,
          52.62919356
        ]
      },
      "properties": {
        "date": "2024-01-01",
        "severity": "letsel",
        "year": 2024,
        "description": "Onbekend — Bus vs. Fiets",
        "streetName": "Varnebroek",
        "speedLimit": 50,
        "parties": 2
      }
    },
    {
      "type": "Feature",
      "geometry": {
        "type": "Point",
        "coordinates": [
          4.7431321,
          52.64717327
        ]
      },
      "properties": {
        "date": "2024-01-01",
        "severity": "materieel",
        "year": 2024,
        "description": "Onbekend — Personenauto",
        "streetName": "Helderseweg",
        "speedLimit": 50,
        "parties": 1
      }
    },
    {
      "type": "Feature",
      "geometry": {
        "type": "Point",
        "coordinates": [
          4.74624224,
          52.64108064
        ]
      },
      "properties": {
        "date": "2024-01-01",
        "severity": "materieel",
        "year": 2024,
        "description": "Flank — Personenauto",
        "streetName": "Drechterwaard",
        "speedLimit": 30,
        "parties": 2
      }
    },
    {
      "type": "Feature",
      "geometry": {
        "type": "Point",
        "coordinates": [
          4.7583223,
          52.65504006
        ]
      },
      "properties": {
        "date": "2024-01-01",
        "severity": "materieel",
        "year": 2024,
        "description": "Onbekend — Personenauto",
        "streetName": "Europaweg",
        "speedLimit": 50,
        "parties": 1
      }
    },
    {
      "type": "Feature",
      "geometry": {
        "type": "Point",
        "coordinates": [
          4.77656149,
          52.64613421
        ]
      },
      "properties": {
        "date": "2024-01-01",
        "severity": "materieel",
        "year": 2024,
        "description": "Flank — Personenauto vs. Bromfiets",
        "streetName": "Herenweg",
        "speedLimit": 30,
        "parties": 2
      }
    },
    {
      "type": "Feature",
      "geometry": {
        "type": "Point",
        "coordinates": [
          4.77417312,
          52.62536217
        ]
      },
      "properties": {
        "date": "2024-01-01",
        "severity": "materieel",
        "year": 2024,
        "description": "Flank — Bestelauto vs. Bestelauto",
        "streetName": "Nieuwe Schermerweg",
        "speedLimit": 50,
        "parties": 3
      }
    },
    {
      "type": "Feature",
      "geometry": {
        "type": "Point",
        "coordinates": [
          4.7395043,
          52.63292664
        ]
      },
      "properties": {
        "date": "2024-01-01",
        "severity": "letsel",
        "year": 2024,
        "description": "Flank — Personenauto vs. Fiets",
        "streetName": "Geestersingel",
        "speedLimit": 50,
        "parties": 2
      }
    },
    {
      "type": "Feature",
      "geometry": {
        "type": "Point",
        "coordinates": [
          4.71536969,
          52.63302947
        ]
      },
      "properties": {
        "date": "2024-01-01",
        "severity": "materieel",
        "year": 2024,
        "description": "Kop/staart — Personenauto vs. Personenauto",
        "streetName": "Martin Luther Kingweg",
        "speedLimit": 70,
        "parties": 2
      }
    },
    {
      "type": "Feature",
      "geometry": {
        "type": "Point",
        "coordinates": [
          4.74038264,
          52.63420706
        ]
      },
      "properties": {
        "date": "2024-01-01",
        "severity": "letsel",
        "year": 2024,
        "description": "Vast voorwerp — Fiets vs. Overig vast object",
        "streetName": "FIETSPAD",
        "speedLimit": 50,
        "parties": 2
      }
    },
    {
      "type": "Feature",
      "geometry": {
        "type": "Point",
        "coordinates": [
          4.78223975,
          52.64127713
        ]
      },
      "properties": {
        "date": "2024-01-01",
        "severity": "letsel",
        "year": 2024,
        "description": "Voetganger — Bromfiets vs. Voetganger",
        "streetName": "Nollenweg",
        "speedLimit": 80,
        "parties": 2
      }
    },
    {
      "type": "Feature",
      "geometry": {
        "type": "Point",
        "coordinates": [
          4.72509606,
          52.63318117
        ]
      },
      "properties": {
        "date": "2024-01-01",
        "severity": "letsel",
        "year": 2024,
        "description": "Onbekend — Fiets",
        "streetName": "Judith Leysterstraat",
        "speedLimit": 50,
        "parties": 1
      }
    },
    {
      "type": "Feature",
      "geometry": {
        "type": "Point",
        "coordinates": [
          4.74037483,
          52.61407403
        ]
      },
      "properties": {
        "date": "2024-01-01",
        "severity": "materieel",
        "year": 2024,
        "description": "Kop/staart — Personenauto vs. Bestelauto",
        "streetName": "Rijksweg 9",
        "speedLimit": 70,
        "parties": 2
      }
    },
    {
      "type": "Feature",
      "geometry": {
        "type": "Point",
        "coordinates": [
          4.71748862,
          52.63431901
        ]
      },
      "properties": {
        "date": "2024-01-01",
        "severity": "materieel",
        "year": 2024,
        "description": "Onbekend — Personenauto vs. Personenauto",
        "streetName": "Martin Luther Kingweg",
        "speedLimit": 70,
        "parties": 2
      }
    },
    {
      "type": "Feature",
      "geometry": {
        "type": "Point",
        "coordinates": [
          4.76224167,
          52.6301027
        ]
      },
      "properties": {
        "date": "2024-01-01",
        "severity": "materieel",
        "year": 2024,
        "description": "Flank — Personenauto vs. Personenauto",
        "streetName": "Nieuwe Schermerweg",
        "speedLimit": 50,
        "parties": 2
      }
    },
    {
      "type": "Feature",
      "geometry": {
        "type": "Point",
        "coordinates": [
          4.76711897,
          52.65377431
        ]
      },
      "properties": {
        "date": "2024-01-01",
        "severity": "materieel",
        "year": 2024,
        "description": "Kop/staart — Bestelauto vs. Personenauto",
        "streetName": "Schagerweg",
        "speedLimit": 70,
        "parties": 3
      }
    },
    {
      "type": "Feature",
      "geometry": {
        "type": "Point",
        "coordinates": [
          4.73920262,
          52.62467388
        ]
      },
      "properties": {
        "date": "2024-01-01",
        "severity": "materieel",
        "year": 2024,
        "description": "Flank — Personenauto vs. Snorfiets",
        "streetName": "Juliana van Stolberglaan",
        "speedLimit": 50,
        "parties": 2
      }
    },
    {
      "type": "Feature",
      "geometry": {
        "type": "Point",
        "coordinates": [
          4.7492745,
          52.6556484
        ]
      },
      "properties": {
        "date": "2024-01-01",
        "severity": "materieel",
        "year": 2024,
        "description": "Flank — Personenauto vs. Personenauto",
        "streetName": "Schoenmakerstraat",
        "speedLimit": 50,
        "parties": 2
      }
    },
    {
      "type": "Feature",
      "geometry": {
        "type": "Point",
        "coordinates": [
          4.71632229,
          52.62551713
        ]
      },
      "properties": {
        "date": "2024-01-01",
        "severity": "materieel",
        "year": 2024,
        "description": "Flank — Bestelauto vs. Personenauto",
        "streetName": "Martin Luther Kingweg",
        "speedLimit": 70,
        "parties": 2
      }
    },
    {
      "type": "Feature",
      "geometry": {
        "type": "Point",
        "coordinates": [
          4.73602306,
          52.60863264
        ]
      },
      "properties": {
        "date": "2024-01-01",
        "severity": "materieel",
        "year": 2024,
        "description": "Onbekend — Personenauto",
        "streetName": "Rijksweg 9",
        "speedLimit": 100,
        "parties": 1
      }
    },
    {
      "type": "Feature",
      "geometry": {
        "type": "Point",
        "coordinates": [
          4.76064435,
          52.6201996
        ]
      },
      "properties": {
        "date": "2024-01-01",
        "severity": "materieel",
        "year": 2024,
        "description": "Onbekend — Bestelauto vs. Personenauto",
        "streetName": "Bestevaerstraat",
        "speedLimit": 50,
        "parties": 2
      }
    },
    {
      "type": "Feature",
      "geometry": {
        "type": "Point",
        "coordinates": [
          4.75832241,
          52.64003101
        ]
      },
      "properties": {
        "date": "2024-01-01",
        "severity": "materieel",
        "year": 2024,
        "description": "Flank — Fiets vs. Fiets",
        "streetName": "Rekerdijk",
        "speedLimit": null,
        "parties": 2
      }
    },
    {
      "type": "Feature",
      "geometry": {
        "type": "Point",
        "coordinates": [
          4.88269085,
          52.6326178
        ]
      },
      "properties": {
        "date": "2024-01-01",
        "severity": "letsel",
        "year": 2024,
        "description": "Flank — Fiets vs. Motor",
        "streetName": "Schermerdijk",
        "speedLimit": 60,
        "parties": 2
      }
    },
    {
      "type": "Feature",
      "geometry": {
        "type": "Point",
        "coordinates": [
          4.74850487,
          52.63368222
        ]
      },
      "properties": {
        "date": "2024-01-01",
        "severity": "materieel",
        "year": 2024,
        "description": "Kop/staart — Bus vs. Bromfiets",
        "streetName": "Kanaalkade",
        "speedLimit": 50,
        "parties": 2
      }
    },
    {
      "type": "Feature",
      "geometry": {
        "type": "Point",
        "coordinates": [
          4.72893825,
          52.63279119
        ]
      },
      "properties": {
        "date": "2024-01-01",
        "severity": "materieel",
        "year": 2024,
        "description": "Los voorwerp — Fiets vs. Fiets",
        "streetName": "Jan de Heemstraat",
        "speedLimit": 30,
        "parties": 2
      }
    },
    {
      "type": "Feature",
      "geometry": {
        "type": "Point",
        "coordinates": [
          4.76342535,
          52.66589557
        ]
      },
      "properties": {
        "date": "2024-01-01",
        "severity": "materieel",
        "year": 2024,
        "description": "Onbekend",
        "streetName": "Laan van Parijs",
        "speedLimit": null,
        "parties": 1
      }
    },
    {
      "type": "Feature",
      "geometry": {
        "type": "Point",
        "coordinates": [
          4.7599823,
          52.61797966
        ]
      },
      "properties": {
        "date": "2024-01-01",
        "severity": "letsel",
        "year": 2024,
        "description": "Kop/staart — Personenauto vs. Personenauto",
        "streetName": "Bestevaerstraat",
        "speedLimit": 50,
        "parties": 2
      }
    },
    {
      "type": "Feature",
      "geometry": {
        "type": "Point",
        "coordinates": [
          4.76179375,
          52.64434535
        ]
      },
      "properties": {
        "date": "2024-01-01",
        "severity": "letsel",
        "year": 2024,
        "description": "Flank — Fiets vs. Bestelauto",
        "streetName": "Drechterwaard",
        "speedLimit": 50,
        "parties": 2
      }
    },
    {
      "type": "Feature",
      "geometry": {
        "type": "Point",
        "coordinates": [
          4.74124659,
          52.60174451
        ]
      },
      "properties": {
        "date": "2024-01-01",
        "severity": "letsel",
        "year": 2024,
        "description": "Vast voorwerp — Personenauto vs. Boom",
        "streetName": "Fluorietweg",
        "speedLimit": 50,
        "parties": 2
      }
    },
    {
      "type": "Feature",
      "geometry": {
        "type": "Point",
        "coordinates": [
          4.75519051,
          52.63071015
        ]
      },
      "properties": {
        "date": "2024-01-01",
        "severity": "materieel",
        "year": 2024,
        "description": "Flank — Personenauto vs. Bromfiets",
        "streetName": "Wageweg",
        "speedLimit": 30,
        "parties": 2
      }
    },
    {
      "type": "Feature",
      "geometry": {
        "type": "Point",
        "coordinates": [
          4.75357929,
          52.62733818
        ]
      },
      "properties": {
        "date": "2024-01-01",
        "severity": "letsel",
        "year": 2024,
        "description": "Flank — Personenauto vs. Bromfiets",
        "streetName": "Korte Vondelstraat",
        "speedLimit": 30,
        "parties": 2
      }
    },
    {
      "type": "Feature",
      "geometry": {
        "type": "Point",
        "coordinates": [
          4.77516829,
          52.6370851
        ]
      },
      "properties": {
        "date": "2024-01-01",
        "severity": "materieel",
        "year": 2024,
        "description": "Flank — Personenauto vs. Fiets",
        "streetName": "Nyenburgh",
        "speedLimit": 30,
        "parties": 2
      }
    },
    {
      "type": "Feature",
      "geometry": {
        "type": "Point",
        "coordinates": [
          4.74313027,
          52.63060989
        ]
      },
      "properties": {
        "date": "2024-01-01",
        "severity": "materieel",
        "year": 2024,
        "description": "Vast voorwerp — Vrachtauto vs. Lichtmast",
        "streetName": "Ritsevoort",
        "speedLimit": 30,
        "parties": 3
      }
    },
    {
      "type": "Feature",
      "geometry": {
        "type": "Point",
        "coordinates": [
          4.75439765,
          52.61868887
        ]
      },
      "properties": {
        "date": "2024-01-01",
        "severity": "materieel",
        "year": 2024,
        "description": "Onbekend — Personenauto",
        "streetName": "Stalpaertstraat",
        "speedLimit": 30,
        "parties": 1
      }
    },
    {
      "type": "Feature",
      "geometry": {
        "type": "Point",
        "coordinates": [
          4.74960092,
          52.64881524
        ]
      },
      "properties": {
        "date": "2024-01-01",
        "severity": "letsel",
        "year": 2024,
        "description": "Flank — Fiets",
        "streetName": "Mandenmakerstraat",
        "speedLimit": 15,
        "parties": 1
      }
    },
    {
      "type": "Feature",
      "geometry": {
        "type": "Point",
        "coordinates": [
          4.82413837,
          52.61919414
        ]
      },
      "properties": {
        "date": "2024-01-01",
        "severity": "materieel",
        "year": 2024,
        "description": "Frontaal — Personenauto",
        "streetName": "Oterlekerweg",
        "speedLimit": 60,
        "parties": 1
      }
    },
    {
      "type": "Feature",
      "geometry": {
        "type": "Point",
        "coordinates": [
          4.82663069,
          52.61774408
        ]
      },
      "properties": {
        "date": "2024-01-01",
        "severity": "materieel",
        "year": 2024,
        "description": "Onbekend — Landbouwvoertuig",
        "streetName": "Bovenkruier",
        "speedLimit": null,
        "parties": 2
      }
    },
    {
      "type": "Feature",
      "geometry": {
        "type": "Point",
        "coordinates": [
          4.74700536,
          52.63833123
        ]
      },
      "properties": {
        "date": "2024-01-01",
        "severity": "materieel",
        "year": 2024,
        "description": "Kop/staart — Personenauto vs. Personenauto",
        "streetName": "Noorderkade",
        "speedLimit": 50,
        "parties": 3
      }
    },
    {
      "type": "Feature",
      "geometry": {
        "type": "Point",
        "coordinates": [
          4.77815063,
          52.62351289
        ]
      },
      "properties": {
        "date": "2024-01-01",
        "severity": "materieel",
        "year": 2024,
        "description": "Kop/staart — Bestelauto vs. Personenauto",
        "streetName": "Provincialeweg",
        "speedLimit": 80,
        "parties": 2
      }
    },
    {
      "type": "Feature",
      "geometry": {
        "type": "Point",
        "coordinates": [
          4.72378578,
          52.64616979
        ]
      },
      "properties": {
        "date": "2024-01-01",
        "severity": "letsel",
        "year": 2024,
        "description": "Vast voorwerp — Personenauto vs. Lichtmast",
        "streetName": "Bergerweg",
        "speedLimit": 50,
        "parties": 2
      }
    },
    {
      "type": "Feature",
      "geometry": {
        "type": "Point",
        "coordinates": [
          4.73224935,
          52.64761267
        ]
      },
      "properties": {
        "date": "2024-01-01",
        "severity": "materieel",
        "year": 2024,
        "description": "Onbekend — Personenauto vs. Bestelauto",
        "streetName": "Steve Bikoweg",
        "speedLimit": 70,
        "parties": 2
      }
    },
    {
      "type": "Feature",
      "geometry": {
        "type": "Point",
        "coordinates": [
          4.72560148,
          52.62423097
        ]
      },
      "properties": {
        "date": "2024-01-01",
        "severity": "materieel",
        "year": 2024,
        "description": "Flank — Personenauto vs. Personenauto",
        "streetName": "Westerweg",
        "speedLimit": 30,
        "parties": 3
      }
    },
    {
      "type": "Feature",
      "geometry": {
        "type": "Point",
        "coordinates": [
          4.72900777,
          52.63958801
        ]
      },
      "properties": {
        "date": "2024-01-01",
        "severity": "materieel",
        "year": 2024,
        "description": "Onbekend — Fiets vs. Fiets",
        "streetName": "Oude Hoeverweg",
        "speedLimit": 50,
        "parties": 3
      }
    },
    {
      "type": "Feature",
      "geometry": {
        "type": "Point",
        "coordinates": [
          4.76664164,
          52.64293342
        ]
      },
      "properties": {
        "date": "2024-01-01",
        "severity": "materieel",
        "year": 2024,
        "description": "Onbekend",
        "streetName": "Hertog Aalbrechtweg",
        "speedLimit": null,
        "parties": 1
      }
    },
    {
      "type": "Feature",
      "geometry": {
        "type": "Point",
        "coordinates": [
          4.76774424,
          52.67405919
        ]
      },
      "properties": {
        "date": "2024-01-01",
        "severity": "letsel",
        "year": 2024,
        "description": "Onbekend — Fiets",
        "streetName": "Columbuspad",
        "speedLimit": 50,
        "parties": 1
      }
    },
    {
      "type": "Feature",
      "geometry": {
        "type": "Point",
        "coordinates": [
          4.73983171,
          52.61495702
        ]
      },
      "properties": {
        "date": "2024-01-01",
        "severity": "materieel",
        "year": 2024,
        "description": "Kop/staart — Personenauto vs. Personenauto",
        "streetName": "Heilooër Tolweg",
        "speedLimit": 70,
        "parties": 2
      }
    },
    {
      "type": "Feature",
      "geometry": {
        "type": "Point",
        "coordinates": [
          4.71455021,
          52.63463734
        ]
      },
      "properties": {
        "date": "2024-01-01",
        "severity": "letsel",
        "year": 2024,
        "description": "Flank — Personenauto vs. Fiets",
        "streetName": "Terborchlaan",
        "speedLimit": 30,
        "parties": 2
      }
    },
    {
      "type": "Feature",
      "geometry": {
        "type": "Point",
        "coordinates": [
          4.75172747,
          52.66099326
        ]
      },
      "properties": {
        "date": "2024-01-01",
        "severity": "materieel",
        "year": 2024,
        "description": "Onbekend",
        "streetName": "Laan van Athene",
        "speedLimit": null,
        "parties": 1
      }
    },
    {
      "type": "Feature",
      "geometry": {
        "type": "Point",
        "coordinates": [
          4.75418578,
          52.63139587
        ]
      },
      "properties": {
        "date": "2024-01-01",
        "severity": "materieel",
        "year": 2024,
        "description": "Kop/staart — Bestelauto vs. Bestelauto",
        "streetName": "Wageweg",
        "speedLimit": 50,
        "parties": 2
      }
    },
    {
      "type": "Feature",
      "geometry": {
        "type": "Point",
        "coordinates": [
          4.7388078,
          52.61538021
        ]
      },
      "properties": {
        "date": "2024-01-01",
        "severity": "materieel",
        "year": 2024,
        "description": "Kop/staart — Personenauto vs. Personenauto",
        "streetName": "Heilooër Tolweg",
        "speedLimit": 50,
        "parties": 3
      }
    },
    {
      "type": "Feature",
      "geometry": {
        "type": "Point",
        "coordinates": [
          4.73831649,
          52.65420709
        ]
      },
      "properties": {
        "date": "2024-01-01",
        "severity": "materieel",
        "year": 2024,
        "description": "Kop/staart — Bestelauto",
        "streetName": "Steve Bikoweg",
        "speedLimit": 80,
        "parties": 3
      }
    },
    {
      "type": "Feature",
      "geometry": {
        "type": "Point",
        "coordinates": [
          4.71634339,
          52.63347415
        ]
      },
      "properties": {
        "date": "2024-01-01",
        "severity": "materieel",
        "year": 2024,
        "description": "Flank — Personenauto",
        "streetName": "Martin Luther Kingweg",
        "speedLimit": 80,
        "parties": 3
      }
    },
    {
      "type": "Feature",
      "geometry": {
        "type": "Point",
        "coordinates": [
          4.73816779,
          52.62567605
        ]
      },
      "properties": {
        "date": "2024-01-01",
        "severity": "letsel",
        "year": 2024,
        "description": "Kop/staart — Personenauto vs. Personenauto",
        "streetName": "Kennemerstraatweg",
        "speedLimit": 50,
        "parties": 2
      }
    },
    {
      "type": "Feature",
      "geometry": {
        "type": "Point",
        "coordinates": [
          4.75303579,
          52.62899619
        ]
      },
      "properties": {
        "date": "2024-01-01",
        "severity": "materieel",
        "year": 2024,
        "description": "Flank — Bromfiets vs. Bestelauto",
        "streetName": "EENHOORNBRUG",
        "speedLimit": 30,
        "parties": 2
      }
    },
    {
      "type": "Feature",
      "geometry": {
        "type": "Point",
        "coordinates": [
          4.7803086,
          52.55280366
        ]
      },
      "properties": {
        "date": "2024-01-01",
        "severity": "materieel",
        "year": 2024,
        "description": "Onbekend — Bestelauto",
        "streetName": "Provincialeweg",
        "speedLimit": 80,
        "parties": 1
      }
    },
    {
      "type": "Feature",
      "geometry": {
        "type": "Point",
        "coordinates": [
          4.74786939,
          52.6359746
        ]
      },
      "properties": {
        "date": "2024-01-01",
        "severity": "materieel",
        "year": 2024,
        "description": "Voetganger — Personenauto vs. Voetganger",
        "streetName": "Noorderkade",
        "speedLimit": 50,
        "parties": 2
      }
    },
    {
      "type": "Feature",
      "geometry": {
        "type": "Point",
        "coordinates": [
          4.74156233,
          52.63427245
        ]
      },
      "properties": {
        "date": "2024-01-01",
        "severity": "letsel",
        "year": 2024,
        "description": "Onbekend — Fiets",
        "streetName": "Geestersingel",
        "speedLimit": 30,
        "parties": 1
      }
    },
    {
      "type": "Feature",
      "geometry": {
        "type": "Point",
        "coordinates": [
          4.77293609,
          52.64738233
        ]
      },
      "properties": {
        "date": "2024-01-01",
        "severity": "letsel",
        "year": 2024,
        "description": "Voetganger — e-bike vs. Voetganger",
        "streetName": "Hertog Aalbrechtweg",
        "speedLimit": 50,
        "parties": 2
      }
    },
    {
      "type": "Feature",
      "geometry": {
        "type": "Point",
        "coordinates": [
          4.75252364,
          52.64764548
        ]
      },
      "properties": {
        "date": "2024-01-01",
        "severity": "materieel",
        "year": 2024,
        "description": "Frontaal — Fiets vs. Fiets",
        "streetName": "Heukelspad",
        "speedLimit": 30,
        "parties": 2
      }
    },
    {
      "type": "Feature",
      "geometry": {
        "type": "Point",
        "coordinates": [
          4.79769301,
          52.57512684
        ]
      },
      "properties": {
        "date": "2024-01-01",
        "severity": "letsel",
        "year": 2024,
        "description": "Onbekend — Fiets",
        "streetName": "Oudelandsdijk",
        "speedLimit": null,
        "parties": 1
      }
    },
    {
      "type": "Feature",
      "geometry": {
        "type": "Point",
        "coordinates": [
          4.7726151,
          52.66986963
        ]
      },
      "properties": {
        "date": "2024-01-01",
        "severity": "letsel",
        "year": 2024,
        "description": "Frontaal — Personenauto vs. Fiets",
        "streetName": "Laan van Keulen",
        "speedLimit": 50,
        "parties": 2
      }
    },
    {
      "type": "Feature",
      "geometry": {
        "type": "Point",
        "coordinates": [
          4.78796006,
          52.65098189
        ]
      },
      "properties": {
        "date": "2024-01-01",
        "severity": "letsel",
        "year": 2024,
        "description": "Flank — Personenauto vs. Fiets",
        "streetName": "Berenkoog",
        "speedLimit": 50,
        "parties": 2
      }
    },
    {
      "type": "Feature",
      "geometry": {
        "type": "Point",
        "coordinates": [
          4.74820715,
          52.63191471
        ]
      },
      "properties": {
        "date": "2024-01-01",
        "severity": "materieel",
        "year": 2024,
        "description": "Flank — Personenauto",
        "streetName": "Hofplein",
        "speedLimit": 30,
        "parties": 1
      }
    },
    {
      "type": "Feature",
      "geometry": {
        "type": "Point",
        "coordinates": [
          4.74754578,
          52.6365054
        ]
      },
      "properties": {
        "date": "2024-01-01",
        "severity": "letsel",
        "year": 2024,
        "description": "Flank — Snorfiets vs. Personenauto",
        "streetName": "De Jagerstraat",
        "speedLimit": 50,
        "parties": 2
      }
    },
    {
      "type": "Feature",
      "geometry": {
        "type": "Point",
        "coordinates": [
          4.75797244,
          52.6161503
        ]
      },
      "properties": {
        "date": "2024-01-01",
        "severity": "materieel",
        "year": 2024,
        "description": "Kop/staart — Personenauto vs. Personenauto",
        "streetName": "Ommering",
        "speedLimit": 80,
        "parties": 3
      }
    },
    {
      "type": "Feature",
      "geometry": {
        "type": "Point",
        "coordinates": [
          4.75475888,
          52.63308214
        ]
      },
      "properties": {
        "date": "2024-01-01",
        "severity": "materieel",
        "year": 2024,
        "description": "Kop/staart — Motor vs. Personenauto",
        "streetName": "Frieseweg",
        "speedLimit": 50,
        "parties": 2
      }
    },
    {
      "type": "Feature",
      "geometry": {
        "type": "Point",
        "coordinates": [
          4.82365362,
          52.61776954
        ]
      },
      "properties": {
        "date": "2024-01-01",
        "severity": "materieel",
        "year": 2024,
        "description": "Onbekend — Personenauto vs. Vrachtauto",
        "streetName": "Buitenkruier",
        "speedLimit": 50,
        "parties": 2
      }
    },
    {
      "type": "Feature",
      "geometry": {
        "type": "Point",
        "coordinates": [
          4.76548312,
          52.66694769
        ]
      },
      "properties": {
        "date": "2024-01-01",
        "severity": "materieel",
        "year": 2024,
        "description": "Vast voorwerp — Personenauto vs. Overig vast object",
        "streetName": "Suze Groenewegstraat",
        "speedLimit": 30,
        "parties": 2
      }
    },
    {
      "type": "Feature",
      "geometry": {
        "type": "Point",
        "coordinates": [
          4.72609668,
          52.64062422
        ]
      },
      "properties": {
        "date": "2024-01-01",
        "severity": "materieel",
        "year": 2024,
        "description": "Flank — Personenauto",
        "streetName": "Martin Luther Kingweg",
        "speedLimit": 80,
        "parties": 1
      }
    },
    {
      "type": "Feature",
      "geometry": {
        "type": "Point",
        "coordinates": [
          4.72495337,
          52.62206851
        ]
      },
      "properties": {
        "date": "2024-01-01",
        "severity": "letsel",
        "year": 2024,
        "description": "Onbekend — Fiets",
        "streetName": "Regulierslaan",
        "speedLimit": 50,
        "parties": 1
      }
    },
    {
      "type": "Feature",
      "geometry": {
        "type": "Point",
        "coordinates": [
          4.75512665,
          52.63068224
        ]
      },
      "properties": {
        "date": "2024-01-01",
        "severity": "materieel",
        "year": 2024,
        "description": "Flank — Personenauto vs. Personenauto",
        "streetName": "Wortelsteeg",
        "speedLimit": null,
        "parties": 2
      }
    },
    {
      "type": "Feature",
      "geometry": {
        "type": "Point",
        "coordinates": [
          4.71760726,
          52.63421934
        ]
      },
      "properties": {
        "date": "2024-01-01",
        "severity": "materieel",
        "year": 2024,
        "description": "Kop/staart — Personenauto vs. Personenauto",
        "streetName": "Martin Luther Kingweg",
        "speedLimit": 70,
        "parties": 2
      }
    },
    {
      "type": "Feature",
      "geometry": {
        "type": "Point",
        "coordinates": [
          4.75147466,
          52.63279717
        ]
      },
      "properties": {
        "date": "2024-01-01",
        "severity": "materieel",
        "year": 2024,
        "description": "Flank — Personenauto vs. Personenauto",
        "streetName": "Kaarsemakergracht",
        "speedLimit": 50,
        "parties": 2
      }
    },
    {
      "type": "Feature",
      "geometry": {
        "type": "Point",
        "coordinates": [
          4.74757807,
          52.6199914
        ]
      },
      "properties": {
        "date": "2024-01-01",
        "severity": "letsel",
        "year": 2024,
        "description": "Flank — Personenauto vs. Fiets",
        "streetName": "Willem de Zwijgerlaan",
        "speedLimit": 50,
        "parties": 2
      }
    },
    {
      "type": "Feature",
      "geometry": {
        "type": "Point",
        "coordinates": [
          4.77520135,
          52.62040709
        ]
      },
      "properties": {
        "date": "2024-01-01",
        "severity": "materieel",
        "year": 2024,
        "description": "Kop/staart — Personenauto vs. Personenauto",
        "streetName": "Provincialeweg",
        "speedLimit": 50,
        "parties": 3
      }
    },
    {
      "type": "Feature",
      "geometry": {
        "type": "Point",
        "coordinates": [
          4.77791071,
          52.62358944
        ]
      },
      "properties": {
        "date": "2024-01-01",
        "severity": "materieel",
        "year": 2024,
        "description": "Onbekend — Personenauto",
        "streetName": "Provincialeweg",
        "speedLimit": 80,
        "parties": 1
      }
    },
    {
      "type": "Feature",
      "geometry": {
        "type": "Point",
        "coordinates": [
          4.7278199,
          52.6202497
        ]
      },
      "properties": {
        "date": "2024-01-01",
        "severity": "materieel",
        "year": 2024,
        "description": "Kop/staart — Personenauto vs. Personenauto",
        "streetName": "Heilooër Tolweg",
        "speedLimit": 80,
        "parties": 3
      }
    },
    {
      "type": "Feature",
      "geometry": {
        "type": "Point",
        "coordinates": [
          4.72241349,
          52.63234348
        ]
      },
      "properties": {
        "date": "2024-01-01",
        "severity": "materieel",
        "year": 2024,
        "description": "Onbekend",
        "streetName": "Molenaerstraat",
        "speedLimit": 30,
        "parties": 2
      }
    },
    {
      "type": "Feature",
      "geometry": {
        "type": "Point",
        "coordinates": [
          4.72760583,
          52.63403876
        ]
      },
      "properties": {
        "date": "2024-01-01",
        "severity": "materieel",
        "year": 2024,
        "description": "Vast voorwerp — Personenauto vs. Overig vast object",
        "streetName": "Van Ostadelaan",
        "speedLimit": 50,
        "parties": 2
      }
    },
    {
      "type": "Feature",
      "geometry": {
        "type": "Point",
        "coordinates": [
          4.71910542,
          52.62401464
        ]
      },
      "properties": {
        "date": "2024-01-01",
        "severity": "materieel",
        "year": 2024,
        "description": "Kop/staart — Personenauto vs. Personenauto",
        "streetName": "Martin Luther Kingweg",
        "speedLimit": 70,
        "parties": 2
      }
    },
    {
      "type": "Feature",
      "geometry": {
        "type": "Point",
        "coordinates": [
          4.75118379,
          52.66130814
        ]
      },
      "properties": {
        "date": "2024-01-01",
        "severity": "letsel",
        "year": 2024,
        "description": "Flank — Personenauto vs. Fiets",
        "streetName": "Vijzelstraat",
        "speedLimit": 30,
        "parties": 2
      }
    },
    {
      "type": "Feature",
      "geometry": {
        "type": "Point",
        "coordinates": [
          4.74117297,
          52.61066591
        ]
      },
      "properties": {
        "date": "2024-01-01",
        "severity": "materieel",
        "year": 2024,
        "description": "Onbekend",
        "streetName": "Ommering",
        "speedLimit": null,
        "parties": 1
      }
    },
    {
      "type": "Feature",
      "geometry": {
        "type": "Point",
        "coordinates": [
          4.75159498,
          52.5637543
        ]
      },
      "properties": {
        "date": "2024-01-01",
        "severity": "materieel",
        "year": 2024,
        "description": "Eenzijdig — Personenauto",
        "streetName": "Zuiddijk",
        "speedLimit": 80,
        "parties": 1
      }
    },
    {
      "type": "Feature",
      "geometry": {
        "type": "Point",
        "coordinates": [
          4.74212404,
          52.63366454
        ]
      },
      "properties": {
        "date": "2024-01-01",
        "severity": "materieel",
        "year": 2024,
        "description": "Flank — Personenauto vs. Snorfiets",
        "streetName": "Zevenhuizen",
        "speedLimit": 50,
        "parties": 2
      }
    },
    {
      "type": "Feature",
      "geometry": {
        "type": "Point",
        "coordinates": [
          4.75314877,
          52.63235373
        ]
      },
      "properties": {
        "date": "2024-01-01",
        "severity": "letsel",
        "year": 2024,
        "description": "Flank — Personenauto vs. Fiets",
        "streetName": "Kanaalkade",
        "speedLimit": 50,
        "parties": 2
      }
    },
    {
      "type": "Feature",
      "geometry": {
        "type": "Point",
        "coordinates": [
          4.74897558,
          52.64717024
        ]
      },
      "properties": {
        "date": "2024-01-01",
        "severity": "materieel",
        "year": 2024,
        "description": "Kop/staart — Bestelauto vs. Personenauto",
        "streetName": "Huiswaarderweg",
        "speedLimit": 70,
        "parties": 3
      }
    },
    {
      "type": "Feature",
      "geometry": {
        "type": "Point",
        "coordinates": [
          4.7415581,
          52.6149377
        ]
      },
      "properties": {
        "date": "2024-01-01",
        "severity": "materieel",
        "year": 2024,
        "description": "Flank — Personenauto vs. Personenauto",
        "streetName": "Vondelstraat",
        "speedLimit": 50,
        "parties": 2
      }
    },
    {
      "type": "Feature",
      "geometry": {
        "type": "Point",
        "coordinates": [
          4.75002346,
          52.6459338
        ]
      },
      "properties": {
        "date": "2024-01-01",
        "severity": "letsel",
        "year": 2024,
        "description": "Flank — Personenauto vs. Fiets",
        "streetName": "Muiderwaard",
        "speedLimit": 50,
        "parties": 2
      }
    },
    {
      "type": "Feature",
      "geometry": {
        "type": "Point",
        "coordinates": [
          4.75450859,
          52.62824801
        ]
      },
      "properties": {
        "date": "2024-01-01",
        "severity": "materieel",
        "year": 2024,
        "description": "Flank — Bromfiets vs. Fiets",
        "streetName": "WILLEMSBRUG",
        "speedLimit": 30,
        "parties": 2
      }
    },
    {
      "type": "Feature",
      "geometry": {
        "type": "Point",
        "coordinates": [
          4.74790739,
          52.62029372
        ]
      },
      "properties": {
        "date": "2024-01-01",
        "severity": "materieel",
        "year": 2024,
        "description": "Kop/staart — Personenauto vs. Personenauto",
        "streetName": "Vondelstraat",
        "speedLimit": 50,
        "parties": 2
      }
    },
    {
      "type": "Feature",
      "geometry": {
        "type": "Point",
        "coordinates": [
          4.74428837,
          52.64351449
        ]
      },
      "properties": {
        "date": "2024-01-01",
        "severity": "letsel",
        "year": 2024,
        "description": "Flank — Personenauto vs. Fiets",
        "streetName": "Helderseweg",
        "speedLimit": 30,
        "parties": 2
      }
    },
    {
      "type": "Feature",
      "geometry": {
        "type": "Point",
        "coordinates": [
          4.75459617,
          52.65602575
        ]
      },
      "properties": {
        "date": "2024-01-01",
        "severity": "materieel",
        "year": 2024,
        "description": "Flank — Bromfiets vs. Personenauto",
        "streetName": "Laan van Brussel",
        "speedLimit": 50,
        "parties": 2
      }
    },
    {
      "type": "Feature",
      "geometry": {
        "type": "Point",
        "coordinates": [
          4.76969782,
          52.66666106
        ]
      },
      "properties": {
        "date": "2024-01-01",
        "severity": "materieel",
        "year": 2024,
        "description": "Flank — Personenauto vs. Fiets",
        "streetName": "Aletta Jacobsstraat",
        "speedLimit": 30,
        "parties": 3
      }
    },
    {
      "type": "Feature",
      "geometry": {
        "type": "Point",
        "coordinates": [
          4.78929423,
          52.63592025
        ]
      },
      "properties": {
        "date": "2024-01-01",
        "severity": "materieel",
        "year": 2024,
        "description": "Onbekend — Personenauto",
        "streetName": "Provincialeweg",
        "speedLimit": 80,
        "parties": 1
      }
    },
    {
      "type": "Feature",
      "geometry": {
        "type": "Point",
        "coordinates": [
          4.75956265,
          52.61817266
        ]
      },
      "properties": {
        "date": "2024-01-01",
        "severity": "materieel",
        "year": 2024,
        "description": "Kop/staart — Personenauto vs. Vrachtauto",
        "streetName": "Koelmalaan",
        "speedLimit": 50,
        "parties": 2
      }
    },
    {
      "type": "Feature",
      "geometry": {
        "type": "Point",
        "coordinates": [
          4.74411504,
          52.61591981
        ]
      },
      "properties": {
        "date": "2024-01-01",
        "severity": "materieel",
        "year": 2024,
        "description": "Flank — Personenauto vs. Personenauto",
        "streetName": "Rhijnvis Feithlaan",
        "speedLimit": 50,
        "parties": 4
      }
    },
    {
      "type": "Feature",
      "geometry": {
        "type": "Point",
        "coordinates": [
          4.7723027,
          52.62972458
        ]
      },
      "properties": {
        "date": "2024-01-01",
        "severity": "materieel",
        "year": 2024,
        "description": "Onbekend — Personenauto",
        "streetName": "Herenweg",
        "speedLimit": null,
        "parties": 1
      }
    },
    {
      "type": "Feature",
      "geometry": {
        "type": "Point",
        "coordinates": [
          4.77682394,
          52.62192736
        ]
      },
      "properties": {
        "date": "2024-01-01",
        "severity": "materieel",
        "year": 2024,
        "description": "Kop/staart — Personenauto vs. Personenauto",
        "streetName": "Provincialeweg",
        "speedLimit": 80,
        "parties": 3
      }
    },
    {
      "type": "Feature",
      "geometry": {
        "type": "Point",
        "coordinates": [
          4.79379843,
          52.55944005
        ]
      },
      "properties": {
        "date": "2024-01-01",
        "severity": "materieel",
        "year": 2024,
        "description": "Onbekend — Personenauto vs. Personenauto",
        "streetName": "Noorderstraat",
        "speedLimit": 60,
        "parties": 2
      }
    },
    {
      "type": "Feature",
      "geometry": {
        "type": "Point",
        "coordinates": [
          4.71428718,
          52.63431623
        ]
      },
      "properties": {
        "date": "2024-01-01",
        "severity": "letsel",
        "year": 2024,
        "description": "Onbekend — Bromfiets vs. Personenauto",
        "streetName": "Terborchlaan",
        "speedLimit": 50,
        "parties": 2
      }
    },
    {
      "type": "Feature",
      "geometry": {
        "type": "Point",
        "coordinates": [
          4.79257017,
          52.57595151
        ]
      },
      "properties": {
        "date": "2024-01-01",
        "severity": "materieel",
        "year": 2024,
        "description": "Eenzijdig — Fiets",
        "streetName": "Oostdijk",
        "speedLimit": 30,
        "parties": 1
      }
    },
    {
      "type": "Feature",
      "geometry": {
        "type": "Point",
        "coordinates": [
          4.76639128,
          52.64338025
        ]
      },
      "properties": {
        "date": "2024-01-01",
        "severity": "letsel",
        "year": 2024,
        "description": "Frontaal — Fiets vs. Fiets",
        "streetName": "Hertog Aalbrechtweg",
        "speedLimit": 30,
        "parties": 2
      }
    },
    {
      "type": "Feature",
      "geometry": {
        "type": "Point",
        "coordinates": [
          4.83246335,
          52.60921938
        ]
      },
      "properties": {
        "date": "2024-01-01",
        "severity": "letsel",
        "year": 2024,
        "description": "Kop/staart — Bestelauto vs. Bestelauto",
        "streetName": "Noordervaart",
        "speedLimit": 80,
        "parties": 3
      }
    },
    {
      "type": "Feature",
      "geometry": {
        "type": "Point",
        "coordinates": [
          4.91457698,
          52.60856475
        ]
      },
      "properties": {
        "date": "2024-01-01",
        "severity": "letsel",
        "year": 2024,
        "description": "Onbekend — Personenauto",
        "streetName": "Oostmijzerdijk",
        "speedLimit": 60,
        "parties": 1
      }
    },